City_ID,City,Cloudiness,Country,Date,Humidity,Lat,Long,Max Temp,Wind Speed
0,chuy,64,UY,1511027848,80,-33.7,-53.46,61.57,22.84
1,tsihombe,8,MG,1511027857,71,-25.3,45.48,67.1,6.17
2,ostrovnoy,80,RU,1511027960,98,68.05,39.51,21.97,5.17
3,bengkulu,76,ID,1511027813,100,-3.8,102.27,78.62,6.85
4,mataura,0,IN,1511027786,75,27.5,77.68,64.31,7.07
5,nikolskoye,40,RU,1511024400,86,59.68,30.67,37.4,4.47
6,grand gaube,40,MU,1511024400,78,-20.01,57.66,77.0,3.36
7,busselton,76,AU,1511027962,100,-33.65,115.33,61.12,10.87
8,avarua,75,CK,1511024400,83,-21.21,-159.78,77.0,13.87
9,kodiak,1,US,1511023980,64,57.79,-152.41,33.8,3.36
10,punta arenas,75,CL,1511024400,70,-53.15,-70.92,42.8,34.45
11,caceres,0,ES,1511027963,87,39.48,-6.37,50.81,4.27
12,norman wells,90,CA,1511024400,70,65.28,-126.83,-4.01,10.29
13,hobart,0,AU,1511024400,72,-42.88,147.33,60.8,8.05
14,bilma,0,NE,1511027964,24,18.69,12.92,70.39,7.07
15,ancud,92,CL,1511027965,100,-41.87,-73.82,52.52,9.19
16,castro,80,BR,1511027966,78,-24.79,-50.01,73.49,11.99
17,atar,0,MR,1511027966,12,20.52,-13.05,80.87,6.29
18,sinjar,0,IQ,1511027967,47,36.32,41.88,49.42,5.95
19,ibra,0,OM,1511027967,70,22.69,58.53,53.42,2.37
20,cidreira,88,BR,1511027826,79,-30.18,-50.21,75.02,10.2
21,nanakuli,1,US,1511024640,82,21.39,-158.15,77.0,5.82
22,tigil,88,RU,1511027968,82,57.8,158.67,21.52,5.61
23,atasu,88,KZ,1511027968,91,48.68,71.64,28.54,20.49
24,bougouni,12,ML,1511027969,33,11.42,-7.48,86.9,4.94
25,ushuaia,75,AR,1511024400,93,-54.8,-68.3,35.6,28.86
26,carnarvon,0,AU,1511027969,100,-24.87,113.63,68.14,13.0
27,puerto ayora,40,EC,1511024400,50,-0.74,-90.35,77.0,16.11
28,vaini,75,TO,1511025900,94,-21.2,-175.2,78.8,16.58
29,torbay,90,CA,1511026080,93,47.67,-52.73,42.8,2.24
30,thompson,75,CA,1511025840,71,55.74,-97.86,8.6,20.8
31,kristiinankaupunki,92,FI,1511027970,100,62.27,21.38,34.12,4.94
32,hilo,1,US,1511023980,82,19.73,-155.09,62.6,4.7
33,jian,92,CN,1511027971,91,27.12,114.98,48.02,10.87
34,ahipara,92,NZ,1511027972,99,-35.17,173.17,56.39,20.71
35,alofi,88,NU,1511024400,100,-19.06,-169.92,77.0,5.82
36,gizo,64,SB,1511027973,100,-8.1,156.84,83.93,4.5
37,qaanaaq,32,GL,1511027973,100,77.48,-69.36,-3.02,10.76
38,hermanus,0,ZA,1511027759,59,-34.42,19.23,63.23,3.71
39,mar del plata,40,AR,1511024400,62,-38.0,-57.56,57.2,9.17
40,camacha,40,PT,1511026200,68,33.08,-16.33,68.0,8.05
41,cape town,20,ZA,1511024400,72,-33.93,18.42,64.4,16.11
42,airai,92,FI,1511025600,100,60.62,22.58,39.2,4.7
43,yatou,76,CN,1511027915,99,37.15,122.38,35.51,10.98
44,binga,44,ZW,1511027975,64,-17.62,27.34,80.29,5.73
45,chiredzi,8,ZW,1511027975,60,-21.05,31.67,76.28,8.75
46,chowchilla,0,US,1511026500,81,37.12,-120.26,50.0,4.7
47,butaritari,0,KI,1511027976,100,3.07,172.79,83.44,1.14
48,khatanga,24,RU,1511027847,60,71.97,102.5,-6.53,11.32
49,nizhneyansk,90,RU,1511024400,97,55.64,51.82,32.0,17.9
50,ixtapa,5,MX,1511023320,48,20.7,-105.2,86.0,4.7
51,tuktoyaktuk,90,CA,1511024400,84,69.45,-133.04,3.2,9.17
52,jamestown,90,US,1511024160,87,42.1,-79.24,46.4,11.41
53,phangnga,40,TH,1511024400,88,8.45,98.53,80.6,2.24
54,northam,75,GB,1511025600,87,51.03,-4.22,53.6,9.17
55,kapaa,1,US,1511024160,100,22.08,-159.32,66.2,8.05
56,yorosso,0,ML,1511027978,38,12.35,-4.78,86.05,3.04
57,xining,76,CN,1511027941,86,36.62,101.77,14.58,2.71
58,surt,8,LY,1511027979,97,31.21,16.59,64.9,10.54
59,bluff,0,NZ,1511027956,100,-46.6,168.33,50.63,9.98
60,rikitea,48,PF,1511027980,100,-23.12,-134.97,73.0,18.59
61,ushumun,0,RU,1511027980,57,52.78,126.53,-12.38,6.4
62,tazovskiy,76,RU,1511027981,78,67.47,78.7,2.35,6.62
63,labuhan,76,ID,1511027915,100,-6.88,112.21,80.92,6.62
64,luderitz,0,NA,1511027981,57,-26.65,15.16,64.31,17.13
65,albany,90,US,1511024280,55,42.65,-73.76,44.6,9.17
66,abu dhabi,0,AE,1511024400,61,24.47,54.37,78.8,8.05
67,north bend,1,US,1511025300,86,43.41,-124.22,41.0,5.82
68,doha,20,QA,1511024400,57,25.29,51.53,78.8,5.82
69,longyearbyen,40,SJ,1511023800,62,78.22,15.64,24.8,14.99
70,gorontalo,92,ID,1511027982,97,0.54,123.06,74.3,1.92
71,halvad,0,IN,1511027983,63,23.02,71.18,62.87,4.72
72,talnakh,36,RU,1511027983,95,69.49,88.4,-16.25,3.15
73,harper,40,LR,1511024400,83,4.38,-7.72,82.4,6.93
74,tilichiki,32,RU,1511027984,86,60.47,166.1,25.38,15.68
75,ponta do sol,40,PT,1511026200,72,32.67,-17.1,68.0,11.41
76,atuona,80,PF,1511027767,100,-9.8,-139.03,79.25,15.68
77,saint-philippe,0,RE,1511026200,83,-21.36,55.77,77.0,4.7
78,hithadhoo,56,MV,1511027985,100,-0.6,73.08,82.85,9.86
79,port elizabeth,0,ZA,1511024400,82,-33.92,25.57,60.8,5.82
80,lichinga,56,MZ,1511027985,97,-13.31,35.24,66.07,2.82
81,kruisfontein,0,ZA,1511027905,87,-34.0,24.73,60.94,7.96
82,kavaratti,0,IN,1511027986,100,10.57,72.64,83.57,3.15
83,port alfred,0,ZA,1511027986,88,-33.59,26.89,62.47,6.17
84,upernavik,0,GL,1511027987,100,72.79,-56.15,8.65,13.78
85,bredasdorp,0,ZA,1511024400,52,-34.53,20.04,69.8,13.87
86,djenne,12,ML,1511027988,24,13.91,-4.55,84.02,9.19
87,taolanaro,75,MG,1511024400,78,-25.02,46.97,75.2,3.36
88,dingle,76,PH,1511027989,93,11.0,122.67,76.28,2.93
89,taoudenni,0,ML,1511027796,13,22.68,-3.98,71.24,8.41
90,damietta,20,EG,1511024400,83,31.42,31.81,71.6,9.17
91,ha tinh,100,VN,1511027990,100,18.33,105.9,73.31,23.96
92,solnechnyy,44,RU,1511027971,78,50.72,136.63,-8.01,4.16
93,richards bay,0,ZA,1511027990,62,-28.78,32.04,72.14,8.52
94,vila,0,PT,1511026200,71,42.03,-8.16,55.4,2.24
95,east london,0,ZA,1511024400,68,-33.02,27.91,64.4,4.7
96,mackay,40,AU,1511024400,73,-21.15,149.2,75.2,10.29
97,kautokeino,80,NO,1511027993,84,69.01,23.04,21.74,4.72
98,makungu,20,TZ,1511027993,59,-8.73,35.28,74.3,4.94
99,dinguiraye,44,GN,1511027994,27,11.3,-10.72,87.8,4.83
100,cherskiy,92,RU,1511027994,88,68.75,161.3,13.01,5.39
101,pangnirtung,5,CA,1511024400,42,66.15,-65.71,6.8,6.51
102,bima,44,ID,1511027995,100,-8.47,118.72,75.74,3.15
103,katsuura,75,JP,1511024400,42,35.13,140.3,48.2,23.04
104,palabuhanratu,68,ID,1511027754,100,-6.95,106.49,81.86,16.02
105,margate,90,GB,1511025600,81,51.38,1.39,50.0,8.05
106,georgetown,75,GY,1511024400,66,6.8,-58.16,89.6,9.17
107,new norfolk,0,AU,1511024400,72,-42.78,147.06,60.8,8.05
108,portland,90,US,1511025900,93,45.52,-122.68,42.8,3.36
109,russell,20,US,1511025120,70,38.9,-98.86,48.2,27.51
110,baijiantan,64,CN,1511027998,97,45.63,85.18,29.75,5.61
111,broken hill,0,AU,1511027998,87,-31.95,141.43,57.74,8.52
112,souillac,40,MU,1511024400,78,-20.52,57.52,77.0,3.36
113,laguna,1,US,1511026500,80,38.42,-121.42,53.6,8.05
114,teguise,20,ES,1511026200,73,29.06,-13.56,69.8,13.87
115,okha,76,RU,1511027999,99,53.57,142.95,22.19,24.63
116,srednekolymsk,68,RU,1511027999,71,67.45,153.68,-2.3,7.96
117,sale,0,MA,1511026200,55,34.04,-6.82,60.8,4.7
118,ukiah,1,US,1511024160,86,39.15,-123.21,37.4,3.6
119,arraial do cabo,0,BR,1511024400,70,-22.97,-42.03,89.6,20.8
120,aksarka,88,RU,1511028001,88,66.56,67.8,16.16,3.6
121,tasiilaq,20,GL,1511023800,52,65.61,-37.64,17.6,4.7
122,vila franca do campo,20,PT,1511026200,82,37.72,-25.43,66.2,5.82
123,constitucion,0,CL,1511028006,72,-35.33,-72.42,62.02,16.8
124,attawapiskat,80,CA,1511027902,89,52.3,-81.62,27.55,10.2
125,faanui,80,PF,1511028010,100,-16.48,-151.75,78.22,18.7
126,sokyryany,92,UA,1511028011,96,48.45,27.42,37.54,3.04
127,cabedelo,75,BR,1511024400,58,-6.98,-34.83,84.2,13.87
128,chokurdakh,80,RU,1511027843,81,70.63,147.92,6.08,13.0
129,port hardy,90,CA,1511024400,93,50.7,-127.42,42.8,13.87
130,port lincoln,24,AU,1511028014,95,-34.73,135.87,62.51,14.0
131,astoria,90,US,1511024100,93,46.19,-123.83,42.8,3.27
132,qasigiannguit,20,GL,1511027400,54,68.82,-51.19,-0.41,1.12
133,olinda,40,BR,1511028000,65,-8.01,-34.86,82.4,9.17
134,adrar,0,DZ,1511024400,20,27.87,-0.29,73.4,9.17
135,inta,44,RU,1511028019,73,66.03,60.17,8.06,2.59
136,trinidad,40,CU,1511024040,69,21.8,-79.98,80.6,10.29
137,havoysund,68,NO,1511025600,100,71.0,24.66,30.2,4.94
138,qaqortoq,90,GL,1511027400,57,60.72,-46.03,23.0,4.7
139,tumannyy,80,RU,1511028020,100,69.16,35.15,23.09,2.59
140,fort nelson,75,CA,1511024400,77,58.81,-122.7,-0.41,6.93
141,paamiut,76,GL,1511027911,100,61.99,-49.67,31.64,3.15
142,iqaluit,40,CA,1511024400,56,63.75,-68.51,12.2,14.99
143,gigmoto,48,PH,1511028022,100,13.78,124.39,79.61,4.38
144,kungsbacka,75,SE,1511025600,80,57.49,12.08,41.0,12.75
145,svetlyy,90,RU,1511026200,65,54.67,20.13,41.0,17.9
146,george,20,ZA,1511024400,67,-33.96,22.46,62.6,4.7
147,bukene,48,TZ,1511028024,30,-4.23,32.88,83.03,12.77
148,hambantota,64,LK,1511028024,100,6.12,81.12,81.82,2.15
149,mys shmidta,48,UA,1511027802,93,47.75,38.03,32.5,6.96
150,marcona,0,PE,1511027957,90,-15.37,-75.16,64.9,13.33
151,innisfail,92,AU,1511028025,87,-17.53,146.03,70.07,0.47
152,clyde river,40,CA,1511024400,75,70.47,-68.59,-16.61,1.36
153,pevek,88,RU,1511027809,86,69.7,170.31,25.57,15.46
154,shingu,0,JP,1511028026,100,33.73,135.98,53.65,20.83
155,de-kastri,56,RU,1511028026,100,51.47,140.78,8.2,17.47
156,kamyshla,92,RU,1511028027,93,54.12,52.14,32.54,9.42
157,husavik,40,IS,1511024400,85,66.04,-17.34,21.2,2.24
158,provideniya,92,RU,1511028028,100,64.38,-173.3,34.3,28.32
159,batagay-alyta,64,RU,1511027959,69,67.8,130.41,-7.02,2.71
160,joensuu,90,FI,1511027400,93,62.58,29.75,35.6,2.24
161,natal,40,BR,1511024400,62,-5.79,-35.21,84.2,18.34
162,grindavik,75,IS,1511026200,100,63.84,-22.43,32.0,5.82
163,sisimiut,8,GL,1511028030,100,66.94,-53.67,-11.93,3.94
164,necochea,12,AR,1511027935,88,-38.55,-58.74,56.21,18.81
165,the valley,40,AI,1511024400,70,18.22,-63.06,86.0,4.7
166,fortuna,1,US,1511026500,93,40.6,-124.16,42.8,9.17
167,bathsheba,40,BB,1511024400,70,13.22,-59.52,87.8,16.11
168,dikson,12,RU,1511027804,100,73.51,80.55,-4.32,10.42
169,eyl,0,SO,1511028032,85,7.98,49.82,79.25,21.05
170,planaltina,75,BR,1511024400,65,-15.45,-47.61,77.0,13.87
171,neiafu,40,TO,1511024400,94,-18.65,-173.98,78.8,5.82
172,lompoc,1,US,1511026500,58,34.64,-120.46,53.6,4.72
173,rawatbhata,0,IN,1511028033,81,24.93,75.58,60.94,5.17
174,hamilton,90,CA,1511026080,93,43.23,-79.95,48.2,14.99
175,saskylakh,56,RU,1511028027,72,71.92,114.08,-2.3,7.74
176,port shepstone,0,ZA,1511028034,86,-30.74,30.45,69.62,4.38
177,nanortalik,24,GL,1511027823,98,60.14,-45.24,28.58,31.12
178,port blair,0,IN,1511027906,100,11.67,92.75,83.93,4.72
179,barrow,90,US,1511023980,85,71.29,-156.79,12.2,8.05
180,norsup,76,VU,1511028035,92,-16.07,167.38,77.18,8.52
181,coromandel,56,BR,1511028035,74,-18.47,-47.2,79.7,9.64
182,ust-kuyga,64,RU,1511028036,70,70.02,135.6,-16.29,3.38
183,kaitangata,0,NZ,1511028036,80,-46.23,169.75,40.64,3.27
184,klaksvik,48,FO,1511025600,64,62.23,-6.59,39.2,25.28
185,sergeyevka,80,KZ,1511028037,90,53.88,67.42,28.31,9.42
186,kununurra,48,AU,1511026320,74,-15.77,128.73,80.6,6.93
187,bud,90,US,1511027220,77,39.45,-86.18,66.2,25.28
188,roma,0,IT,1511025600,58,41.89,12.48,55.4,5.82
189,villamontes,90,BO,1511024400,57,-21.25,-63.5,80.6,11.41
190,coari,24,BR,1511028038,50,-4.08,-63.14,94.91,4.61
191,shinpokh,20,PK,1511024400,76,34.33,71.18,55.4,4.7
192,poya,44,NC,1511028039,100,-21.35,165.15,72.1,9.42
193,paragould,1,US,1511026500,78,36.06,-90.5,75.2,21.92
194,bestobe,76,KZ,1511027781,85,52.5,73.1,27.14,11.21
195,san patricio,20,MX,1511023800,66,19.22,-104.7,89.6,3.6
196,bujaru,40,BR,1511028000,66,-1.51,-48.04,86.0,11.41
197,omboue,48,GA,1511028041,100,-1.57,9.26,77.81,10.65
198,los llanos de aridane,75,ES,1511026200,73,28.66,-17.92,71.6,3.36
199,ust-kut,88,RU,1511028041,81,56.79,105.77,2.75,2.37
200,pokhara,0,NP,1511028042,79,28.23,83.98,46.94,2.37
201,saldanha,0,ZA,1511024400,68,-33.01,17.94,64.4,9.17
202,meulaboh,48,ID,1511028042,100,4.14,96.13,77.63,3.71
203,karratha,0,AU,1511028043,63,-20.74,116.85,71.6,8.63
204,samusu,48,CN,1511028043,57,41.43,128.03,3.52,7.4
205,holovyne,92,UA,1511028044,97,50.47,28.83,35.78,3.94
206,yellowknife,75,CA,1511024400,76,62.46,-114.35,-9.41,9.17
207,eureka,1,US,1511026500,93,40.8,-124.16,42.8,9.17
208,zhigansk,56,RU,1511027853,72,66.77,123.37,-16.29,6.96
209,taguatinga,64,BR,1511028045,81,-12.39,-46.57,82.98,4.5
210,pyapon,8,MM,1511028046,94,16.28,95.68,78.85,6.62
211,linqiong,40,CN,1511024400,76,30.42,103.46,55.4,4.47
212,haimen,40,CN,1511024400,77,23.19,116.61,66.2,8.95
213,nishihara,75,JP,1511024400,59,26.18,127.76,66.2,24.16
214,ampere,100,BR,1511028047,99,-25.92,-53.47,69.85,3.94
215,san juan,0,AR,1511028048,22,-31.54,-68.54,75.33,7.63
216,rio gallegos,40,AR,1511024400,37,-51.62,-69.22,50.0,38.03
217,lorengau,32,PG,1511028028,100,-2.02,147.27,83.62,6.96
218,korla,0,CN,1511028049,80,41.76,86.15,17.15,0.69
219,osmena,32,PH,1511028050,100,10.52,119.93,82.67,4.83
220,navahrudak,76,BY,1511028050,91,53.6,25.83,33.53,7.63
221,sol-iletsk,92,RU,1511028051,94,51.16,54.99,32.54,9.53
222,meadow lake,20,US,1511027520,17,34.8,-106.54,46.4,10.29
223,coihaique,40,CL,1511024400,51,-45.58,-72.07,59.0,10.29
224,menongue,44,AO,1511028052,49,-14.66,17.69,75.29,5.06
225,otofuke,36,JP,1511028052,81,42.99,143.2,14.27,3.04
226,teya,92,RU,1511028053,80,60.38,92.63,13.15,3.71
227,viedma,0,AR,1511027843,36,-40.81,-63.0,67.55,15.79
228,yumen,0,CN,1511028053,84,40.28,97.2,22.15,10.65
229,chany,76,RU,1511028054,96,55.31,76.76,27.41,12.21
230,meridian,1,US,1511026500,64,43.61,-116.39,39.2,8.05
231,mayumba,44,GA,1511027975,96,-3.43,10.66,77.72,8.52
232,malakal,8,SS,1511027756,61,9.53,31.66,80.92,3.38
233,sioux lookout,75,CA,1511025720,72,50.1,-91.92,17.6,8.05
234,birjand,0,IR,1511024400,17,32.87,59.22,41.0,6.93
235,arenapolis,76,BR,1511028056,83,-14.45,-56.85,82.98,9.86
236,mandalgovi,0,MN,1511028056,42,45.76,106.27,-8.42,2.93
237,palu,8,ID,1511028057,97,-0.89,119.87,78.8,3.15
238,cabo san lucas,5,MX,1511023980,20,22.89,-109.91,87.8,3.36
239,itacare,0,BR,1511028058,80,-14.28,-39.0,80.78,7.96
240,salinas,1,US,1511026500,81,36.68,-121.66,51.8,3.71
241,sacele,88,RO,1511028058,98,45.62,25.69,39.83,1.92
242,mufulira,24,ZM,1511028059,68,-12.55,28.24,71.29,7.29
243,rindge,1,US,1511024160,41,42.75,-72.01,44.6,5.82
244,ca mau,76,VN,1511028059,97,9.18,105.15,79.7,7.74
245,awjilah,0,LY,1511028060,48,29.11,21.29,57.38,7.4
246,sulangan,56,PH,1511028060,100,11.14,123.72,82.72,10.09
247,bambous virieux,40,MU,1511024400,78,-20.34,57.76,77.0,3.36
248,wisconsin rapids,90,US,1511026080,80,44.38,-89.82,39.2,13.87
249,san ignacio,8,BZ,1511027826,58,17.16,-89.07,84.02,3.27
250,wanning,88,CN,1511027884,100,18.8,110.4,78.26,21.05
251,ilulissat,20,GL,1511027400,54,69.22,-51.1,-0.41,1.12
252,namalenga,0,TZ,1511028062,63,-10.95,39.1,80.78,10.98
253,gladstone,88,AU,1511028063,100,-23.85,151.25,65.48,8.3
254,algiers,20,DZ,1511026200,82,36.75,3.04,59.0,6.93
255,victoria,75,CA,1511025300,93,48.43,-123.37,50.0,4.7
256,makokou,32,GA,1511028064,91,0.57,12.86,75.79,2.26
257,langsa,20,ID,1511028064,98,4.47,97.97,69.85,2.04
258,san mateo ixtatan,0,GT,1511028065,65,15.83,-91.48,69.22,2.26
259,campbell river,75,CA,1511025600,87,50.02,-125.24,46.4,10.29
260,tiksi,64,RU,1511028066,84,71.69,128.87,9.23,7.74
261,presidencia roque saenz pena,0,AR,1511028067,21,-26.79,-60.44,80.47,23.51
262,nizhniy kuranakh,44,RU,1511028067,68,58.84,125.49,-16.25,2.59
263,araouane,48,ML,1511027849,16,18.9,-3.53,69.71,4.16
264,zhigalovo,80,RU,1511027936,92,54.81,105.16,13.73,2.93
265,manaure,92,CO,1511028068,100,11.78,-72.44,74.35,7.07
266,aklavik,90,CA,1511024400,84,68.22,-135.01,5.0,8.05
267,berlevag,92,NO,1511028068,100,70.86,29.09,33.04,7.52
268,oranjemund,0,NA,1511028069,95,-28.55,16.43,60.71,21.5
269,vostok,24,RU,1511028069,70,46.49,135.88,-6.84,3.71
270,benjamin aceval,20,PY,1511024400,48,-24.97,-57.57,84.2,20.8
271,kayes,80,ML,1511028070,25,14.44,-11.43,86.0,4.94
272,kamenka,44,RU,1511028071,92,51.32,42.77,30.25,8.86
273,kuznechikha,80,RU,1511028071,93,57.22,42.33,32.63,11.32
274,lasa,0,IT,1511025600,72,46.62,10.7,37.4,3.36
275,ust-ilimsk,76,RU,1511028072,80,58.0,102.66,3.79,2.48
276,leshukonskoye,92,RU,1511028015,83,64.9,45.76,33.04,8.19
277,esperance,8,AU,1511028073,98,-33.87,121.9,59.77,3.27
278,isangel,12,VU,1511027972,100,-19.55,169.27,73.58,7.74
279,codrington,0,AU,1511027891,91,-38.27,141.97,61.83,7.63
280,bequimao,40,BR,1511024400,58,-2.45,-44.78,87.8,17.22
281,mahebourg,40,MU,1511024400,78,-20.41,57.7,77.0,3.36
282,sao filipe,0,CV,1511028074,92,14.9,-24.5,79.16,10.65
283,dubbo,75,AU,1511024400,87,-32.25,148.62,60.8,10.29
284,mangrol,0,IN,1511028075,67,21.12,70.12,76.64,18.25
285,berberati,0,CF,1511028076,81,4.26,15.79,76.64,2.04
286,fougeres,90,FR,1511026200,100,48.35,-1.2,48.2,4.7
287,monte alegre,0,BR,1511028077,40,-2.01,-54.07,95.09,4.61
288,padang,76,ID,1511028077,100,-0.95,100.35,75.74,3.71
289,la asuncion,0,VE,1511027947,93,11.03,-63.86,84.52,12.21
290,razdolnoye,0,RU,1511026200,71,43.55,131.92,5.0,4.47
291,guerrero negro,20,MX,1511027803,71,27.98,-114.06,72.77,3.83
292,tura,0,IN,1511028079,89,25.52,90.22,65.62,4.38
293,tevriz,76,RU,1511028079,90,57.51,72.4,21.74,4.72
294,haines junction,68,CA,1511028080,84,60.75,-137.51,0.36,2.37
295,barentsburg,40,DE,1511027400,86,52.62,8.8,39.2,11.41
296,kuantan,75,MY,1511024400,94,3.81,103.33,77.0,1.12
297,bubaque,0,GW,1511024400,48,11.28,-15.83,86.0,2.24
298,riberalta,75,BO,1511024400,59,-10.98,-66.1,89.6,9.17
299,tenenkou,0,ML,1511028082,28,14.46,-4.92,80.92,6.17
300,sovetskoye,12,RU,1511028082,55,52.29,85.41,6.62,3.15
301,tiruchchendur,0,IN,1511028083,91,8.48,78.12,78.22,2.93
302,port macquarie,90,AU,1511024400,100,-31.43,152.92,60.8,5.95
303,sosnovo-ozerskoye,80,RU,1511028083,68,52.52,111.54,5.05,9.31
304,urusha,12,RU,1511028084,63,54.05,122.9,-14.72,4.61
305,rawlins,1,US,1511025300,79,41.79,-107.24,23.0,19.46
306,lebu,0,CL,1511027792,98,-37.62,-73.65,55.49,19.26
307,klyuchi,88,RU,1511028085,96,52.27,79.17,32.54,7.74
308,port hedland,0,AU,1511024400,78,-20.32,118.57,77.0,11.41
309,imbituba,40,BR,1511024400,78,-28.24,-48.67,75.2,12.75
310,fukue,20,JP,1511028086,100,32.69,128.84,55.67,26.19
311,antofagasta,20,CL,1511024400,63,-23.65,-70.4,66.2,14.99
312,bethel,75,US,1511024160,49,41.37,-73.41,46.4,9.17
313,hilotongan,56,PH,1511028087,100,11.14,123.64,82.72,10.09
314,lavrentiya,92,RU,1511028088,100,65.58,-171.0,31.42,28.1
315,rock sound,88,BS,1511028089,100,24.9,-76.2,79.34,16.02
316,egvekinot,92,RU,1511028089,88,66.32,-179.17,21.92,8.52
317,ennis,75,IE,1511024400,93,52.84,-8.99,46.4,6.93
318,lopsmarka,0,NO,1511025600,69,67.31,14.45,33.8,19.46
319,shimoda,92,JP,1511028091,100,34.67,138.95,54.95,20.83
320,marsh harbour,32,BS,1511028091,100,26.54,-77.06,78.8,10.2
321,severo-kurilsk,92,RU,1511027813,100,50.68,156.12,37.13,34.92
322,lahat,88,ID,1511028092,95,-3.8,103.53,75.83,1.92
323,colares,0,PT,1511026200,55,38.8,-9.45,62.6,1.12
324,nesna,68,NO,1511028092,100,66.2,13.02,24.49,2.37
325,hamada,88,JP,1511028093,96,34.88,132.08,47.48,15.01
326,lata,0,PT,1511024400,67,40.16,-8.33,60.8,3.36
327,sentyabrskiy,68,RU,1511027794,87,60.75,72.86,21.38,8.97
328,lima,8,PE,1511028063,53,-12.04,-77.03,70.7,3.15
329,manyana,0,BW,1511028094,40,-23.4,21.72,68.58,2.71
330,geraldton,90,AU,1511024400,77,-28.77,114.6,64.4,6.93
331,namibe,0,AO,1511027797,100,-15.2,12.15,70.61,6.29
332,bilibino,92,RU,1511028096,83,68.05,166.44,14.72,1.92
333,ndioum,0,SN,1511024400,14,16.51,-14.65,89.6,4.7
334,nisko,90,PL,1511026200,100,50.52,22.14,37.4,4.7
335,touros,0,BR,1511027857,65,-5.2,-35.46,84.7,14.79
336,kisanga,20,TZ,1511024400,69,-7.44,37.7,80.6,11.41
337,rio branco,40,BR,1511024400,49,-9.97,-67.81,89.6,9.17
338,narsaq,90,GL,1511027400,57,60.92,-46.05,23.0,4.7
339,komsomolskiy,0,UZ,1511024400,74,40.43,71.72,41.0,4.7
340,umzimvubu,56,ZA,1511028024,43,-30.55,29.42,58.46,2.82
341,lodja,20,CD,1511028099,92,-3.48,23.43,73.54,1.92
342,denpasar,20,ID,1511022600,88,-8.65,115.22,78.8,1.12
343,peruibe,36,BR,1511028100,96,-24.32,-47.0,77.27,8.75
344,naze,8,JP,1511028101,100,28.37,129.48,66.65,21.83
345,woodward,75,US,1511027700,37,36.43,-99.39,53.6,24.16
346,coruripe,48,BR,1511028102,91,-10.13,-36.18,80.24,12.44
347,kamenskoye,0,UA,1511026200,100,48.51,34.6,37.4,6.71
348,zhireken,0,RU,1511028103,54,52.82,117.31,-20.34,2.59
349,pingliang,92,CN,1511028103,82,35.54,106.69,28.22,2.93
350,cedar city,1,US,1511023980,68,37.68,-113.06,28.4,2.48
351,borba,24,BR,1511028104,76,-4.39,-59.59,85.82,3.6
352,loviisa,90,FI,1511025600,93,60.45,26.23,39.2,8.05
353,muddebihal,36,IN,1511028105,70,16.33,76.13,74.3,6.62
354,khromtau,36,KZ,1511027870,87,50.25,58.43,24.94,10.76
355,sao joao da barra,20,BR,1511024400,48,-21.64,-41.05,87.8,25.28
356,visnes,75,NO,1511025600,75,59.36,5.22,46.4,27.51
357,sola,88,VU,1511028106,100,-13.88,167.55,78.17,16.8
358,sao gabriel da cachoeira,12,BR,1511028044,67,-0.13,-67.09,89.96,1.03
359,tyrma,36,RU,1511028107,62,50.08,132.17,-14.36,3.04
360,kavieng,68,PG,1511028107,100,-2.57,150.8,81.14,3.49
361,novyy urgal,64,RU,1511028108,69,51.07,132.56,-16.29,2.71
362,praia da vitoria,75,PT,1511024400,88,38.73,-27.07,69.8,16.58
363,willowmore,0,ZA,1511028109,35,-33.29,23.49,62.73,3.94
364,gannan,0,CN,1511028109,63,47.91,123.5,-14.0,8.41
365,jaffna,0,LK,1511028017,100,9.67,80.01,81.86,7.96
366,tuatapere,80,NZ,1511028110,100,-46.13,167.68,46.27,4.61
367,milazzo,40,IT,1511024100,72,38.22,15.24,60.8,6.93
368,daura,0,NG,1511028110,29,11.55,11.41,81.64,5.61
369,anadyr,90,RU,1511024400,100,64.75,177.48,35.6,11.18
370,torquay,75,GB,1511027400,87,50.46,-3.51,51.8,9.17
371,tarauaca,44,BR,1511028112,72,-8.16,-70.77,86.27,5.61
372,anloga,20,GH,1511024400,83,5.79,0.9,84.2,13.87
373,bend,1,US,1511025300,59,44.06,-121.32,37.4,5.82
374,carutapera,64,BR,1511028113,66,-1.2,-46.02,86.32,12.55
375,vao,88,NC,1511028113,100,-22.67,167.48,70.16,11.21
376,plyussa,92,RU,1511028113,97,58.43,29.37,36.5,9.86
377,turukhansk,88,RU,1511028114,66,65.82,87.98,-4.46,11.65
378,vysokogornyy,20,RU,1511028115,55,50.12,139.15,-12.51,3.6
379,mao,0,ES,1511026200,76,39.89,4.27,51.8,11.41
380,puerto escondido,5,MX,1511023200,69,15.85,-97.07,82.4,6.93
381,shipitsyno,76,RU,1511028116,86,61.28,46.52,35.06,17.69
382,bad orb,75,DE,1511027400,97,50.23,9.35,41.0,10.29
383,nyurba,64,RU,1511027939,66,63.28,118.33,-8.91,5.28
384,deputatskiy,64,RU,1511028117,74,69.3,139.9,-12.38,2.93
385,nueva gorgona,40,PA,1511024400,74,8.55,-79.87,84.2,6.93
386,el campo,75,US,1511025300,65,29.2,-96.27,82.4,13.87
387,ogulin,0,HR,1511026200,57,45.27,15.23,48.2,8.05
388,laytown,75,IE,1511024400,93,53.68,-6.24,44.6,6.93
389,marystown,80,CA,1511028119,93,47.17,-55.15,44.24,7.74
390,sosnogorsk,68,RU,1511028120,90,63.6,53.88,31.01,6.62
391,hashtrud,20,IR,1511028120,71,37.48,47.05,26.51,2.59
392,dukat,0,RU,1511028121,56,62.55,155.55,-21.56,2.59
393,mahajanga,40,MG,1511024400,83,-15.72,46.32,80.6,4.7
394,nemuro,92,JP,1511028121,100,43.32,145.57,40.64,15.46
395,makaryev,80,RU,1511028122,90,57.88,43.81,32.18,9.42
396,phon,88,TH,1511028123,97,15.82,102.6,72.68,5.73
397,wilkie,1,CA,1511024400,77,52.42,-108.7,-0.41,3.36
398,mount isa,0,AU,1511024400,36,-20.73,139.5,64.4,2.24
399,punta umbria,0,ES,1511028124,83,37.18,-6.97,59.77,1.59
400,sotouboua,32,TG,1511028124,84,8.57,0.98,75.2,5.61
401,waingapu,20,ID,1511028125,100,-9.66,120.26,72.1,2.71
402,edd,0,ER,1511028125,43,13.93,41.69,73.13,6.51
403,bow island,90,CA,1511024400,79,49.87,-111.37,23.0,11.41
404,wronki,75,PL,1511026200,100,52.71,16.38,39.2,14.99
405,shahrud,0,IR,1511028127,71,36.42,54.98,26.33,2.59
406,maxixe,0,MZ,1511028128,88,-23.86,35.35,72.5,10.76
407,kijang,0,KR,1511024400,47,35.24,129.21,33.8,17.22
408,rawah,36,IQ,1511028128,84,34.48,41.91,55.72,9.42
409,ust-barguzin,56,RU,1511028129,100,53.45,108.98,4.82,2.71
410,cayenne,0,GF,1511026200,62,4.93,-52.33,87.8,10.29
411,college,20,US,1511024280,75,64.86,-147.8,-18.41,3.94
412,ailigandi,68,PA,1511028130,88,9.23,-78.02,79.34,3.6
413,sao felix do xingu,48,BR,1511027953,59,-6.64,-51.99,88.83,2.15
414,aranos,0,NA,1511028131,12,-24.13,19.12,70.83,2.82
415,attingal,40,IN,1511024400,83,8.68,76.83,82.4,2.24
416,haapiti,75,PF,1511026200,78,-17.57,-149.87,80.6,6.93
417,aitape,80,PG,1511028132,94,-3.14,142.35,82.08,10.31
418,kpandae,20,GH,1511028132,98,8.47,-0.01,73.22,3.6
419,manbij,0,SY,1511025600,36,36.53,37.95,60.8,6.93
420,petropavlovsk-kamchatskiy,88,RU,1511024400,85,53.05,158.65,21.2,4.47
421,pinega,88,RU,1511028066,84,64.7,43.39,33.35,7.96
422,umea,90,SE,1511025600,92,63.83,20.26,21.2,11.41
423,piacabucu,0,BR,1511028134,58,-10.41,-36.43,84.38,12.88
424,byron bay,75,AU,1511024400,100,-28.65,153.62,62.6,5.82
425,san cristobal,40,VE,1511024400,62,7.77,-72.22,87.8,8.05
426,sao jose da coroa grande,92,BR,1511028134,79,-8.9,-35.15,80.2,9.42
427,ribeira grande,75,PT,1511026200,94,38.52,-28.7,68.0,11.41
428,bontang,56,ID,1511028135,93,0.13,117.5,83.66,2.59
429,amahai,80,ID,1511028136,100,-3.33,128.92,82.72,5.61
430,tupik,12,RU,1511028136,59,54.43,119.93,-22.18,2.59
431,cap malheureux,40,MU,1511024400,78,-19.98,57.61,77.0,3.36
432,visby,90,SE,1511025600,81,57.64,18.3,42.8,11.41
433,grosseto,0,IT,1511024100,58,42.77,11.11,55.4,11.41
434,yulara,92,AU,1511024400,33,-25.24,130.99,86.0,5.82
435,ponta delgada,20,PT,1511026200,82,37.73,-25.67,66.2,5.82
436,coquimbo,20,CL,1511024400,67,-29.95,-71.34,62.6,13.87
437,charlestown,75,AU,1511024400,87,-32.95,151.67,60.8,3.36
438,kloulklubed,90,PW,1511023860,94,7.04,134.26,80.6,4.7
439,esil,24,KZ,1511028140,80,51.96,66.4,20.66,7.4
440,sorland,64,NO,1511028140,100,67.67,12.69,41.58,10.98
441,parabel,88,RU,1511028141,94,58.7,81.48,29.66,6.62
442,along,12,IN,1511028142,88,28.17,94.77,59.14,1.92
443,lagoa,24,PT,1511028142,97,39.05,-27.98,68.0,18.81
444,sakaiminato,75,JP,1511024400,56,35.55,133.23,44.6,4.7
445,abha,0,SA,1511024400,82,18.22,42.51,60.8,6.93
446,huntington,20,US,1511025300,48,38.42,-82.45,66.2,17.22
447,quang ngai,92,VN,1511028143,96,15.12,108.8,69.94,2.48
448,upata,0,VE,1511028143,44,8.01,-62.4,92.12,8.08
449,kudahuvadhoo,32,MV,1511028144,100,2.67,72.89,83.39,5.95
450,shamary,88,RU,1511028144,89,57.34,58.22,28.76,12.44
451,liaozhong,0,CN,1511026200,56,41.51,122.72,12.2,10.98
452,manggar,68,ID,1511028145,100,-2.88,108.27,76.6,3.38
453,joacaba,92,BR,1511028146,94,-27.18,-51.5,65.66,4.05
454,khvoynaya,80,RU,1511028146,91,58.9,34.53,34.83,10.42
455,santa maria,20,BR,1511024400,44,-29.68,-53.81,78.8,9.17
456,nacogdoches,40,US,1511026500,65,31.6,-94.66,77.0,11.41
457,digby,0,CA,1511028148,100,44.62,-65.77,39.47,9.98
458,bowen,40,AU,1511024400,94,-20.02,148.23,68.0,3.36
459,great yarmouth,40,GB,1511027400,87,52.61,1.73,44.6,8.05
460,simoes,20,BR,1511028149,45,-7.6,-40.82,86.9,7.63
461,am timan,44,TD,1511028053,47,11.03,20.28,85.42,3.15
462,nyimba,48,ZM,1511028150,67,-14.56,30.81,77.54,7.4
463,vikhorevka,76,RU,1511026200,92,56.12,101.16,15.8,2.59
464,caravelas,0,BR,1511028151,100,-17.71,-39.25,77.72,11.65
465,marawi,32,PH,1511028151,98,8.0,124.29,65.03,2.04
466,darhan,36,MN,1511028152,48,49.49,105.92,0.14,2.59
467,iskateley,76,RU,1511028152,86,67.68,53.15,21.52,15.01
468,okhotsk,0,RU,1511028153,100,59.38,143.3,-10.03,7.63
469,kahului,20,US,1511025300,93,20.89,-156.47,68.0,6.93
470,brae,80,GB,1511027400,75,60.4,-1.35,44.6,29.97
471,lermontovka,44,RU,1511028154,89,47.15,134.34,-6.8,6.17
472,la maddalena,75,IT,1511026200,81,41.21,9.41,53.6,2.24
473,finschhafen,88,PG,1511028155,97,-6.6,147.87,72.86,2.71
474,vila velha,20,BR,1511026500,66,-20.33,-40.29,84.2,21.92
475,rizhao,0,CN,1511028156,97,35.43,119.46,24.35,5.17
476,nuevitas,40,CU,1511023800,69,21.55,-77.26,80.6,13.87
477,leningradskiy,92,RU,1511028157,100,69.38,178.42,22.87,32.57
478,mathathane,0,BW,1511027935,36,-22.27,28.75,75.07,8.63
479,ulcinj,75,ME,1511026200,66,41.93,19.22,55.4,3.36
480,tigre,40,AR,1511024400,31,-34.43,-58.58,66.2,9.17
481,conde,75,BR,1511024400,58,-7.26,-34.91,84.2,13.87
482,faro,0,PT,1511026200,77,37.02,-7.93,62.6,2.93
483,sibolga,88,ID,1511028159,100,1.74,98.78,68.58,1.25
484,oudtshoorn,20,ZA,1511024400,67,-33.59,22.2,62.6,4.7
485,igdir,0,TR,1511026200,81,39.92,44.05,42.8,2.24
486,alice springs,0,AU,1511024400,38,-23.7,133.88,75.2,3.36
487,nouadhibou,0,MR,1511024400,68,20.93,-17.03,71.6,13.87
488,were ilu,0,ET,1511028161,79,10.6,39.43,38.66,1.7
489,lazaro cardenas,8,MX,1511028161,86,17.96,-102.2,82.67,3.27
490,guanica,90,PR,1511027400,94,17.97,-66.91,77.0,5.17
491,shemonaikha,12,KZ,1511028162,79,50.63,81.91,29.84,12.33
492,constantine,40,DZ,1511026200,76,36.37,6.61,51.8,6.93
493,kampot,76,KH,1511028019,99,10.62,104.18,73.22,3.04
494,bay city,90,US,1511026500,93,43.59,-83.89,44.6,9.17
495,gunjur,12,GM,1511027957,75,13.2,-16.73,86.09,6.17
496,umm lajj,92,SA,1511028164,92,25.02,37.27,76.42,2.15
497,farafangana,92,MG,1511028165,100,-22.82,47.83,74.62,14.79
498,mount gambier,0,AU,1511028165,87,-37.83,140.77,57.47,3.38
499,alyangula,32,AU,1511028166,100,-13.85,136.42,83.17,4.72
500,saint george,1,US,1511024160,28,37.1,-113.58,42.8,3.36
501,tsabong,0,BW,1511028167,15,-26.05,22.45,68.72,2.82
502,el carmen,24,CO,1511028158,76,8.51,-73.45,77.32,2.59
503,uray,80,RU,1511028168,89,60.12,64.78,23.09,5.84
504,guadalupe y calvo,0,MX,1511028168,13,26.1,-106.97,69.89,2.71
505,bolobo,92,CD,1511028169,100,-2.17,16.23,70.52,1.36
506,lamar,1,US,1511023980,33,38.09,-102.62,46.4,18.34
507,bogande,56,BF,1511028170,39,12.97,-0.14,86.58,2.82
508,biloela,92,AU,1511028170,92,-24.42,150.5,61.75,7.18
509,san rafael,0,AR,1511028171,15,-34.62,-68.33,77.63,8.41
510,cairns,40,AU,1511024400,83,-16.92,145.77,75.2,4.7
511,shubarkuduk,0,KZ,1511028172,75,49.14,56.49,19.9,4.16
512,mendoza,0,AR,1511024400,8,-32.89,-68.83,73.4,9.17
513,monterey,1,US,1511026500,81,36.6,-121.89,51.8,3.71
514,nome,90,US,1511025540,86,64.5,-165.41,28.4,17.22
515,el dorado,90,US,1511026500,57,33.21,-92.67,78.8,13.87
516,atocha,0,BO,1511028174,6,-20.93,-66.23,67.82,10.31
517,durg,20,IN,1511028175,84,21.18,81.28,69.22,3.15
518,flin flon,90,CA,1511024400,71,54.77,-101.86,8.6,10.29
519,khandyga,12,RU,1511028172,57,62.67,135.6,-32.72,2.71
520,camara de lobos,40,PT,1511026200,72,32.63,-16.97,68.0,11.41
521,santa cruz cabralia,40,BR,1511024400,74,-16.28,-39.02,80.6,18.34
522,buxar,0,IN,1511028177,74,25.58,83.98,72.05,6.73
523,kharitonovo,92,RU,1511028060,87,61.4,47.5,34.61,16.46
524,pirajui,48,BR,1511028178,86,-22.0,-49.46,81.86,11.77
525,jurado,36,CO,1511028178,100,7.11,-77.76,78.71,5.95
526,ketchikan,90,US,1511024160,100,55.34,-131.65,42.8,4.7
527,vardo,88,NO,1511027982,100,70.37,31.11,38.03,13.0
528,newport,90,GB,1511027400,100,51.59,-3.0,53.6,17.22
529,kasongo-lunda,80,CD,1511028180,93,-6.47,16.82,71.6,2.04
530,sao sebastiao,68,BR,1511028180,88,-23.76,-45.41,78.26,8.41
531,harnosand,90,SE,1511025600,92,62.63,17.94,30.2,8.05
532,kindu,12,CD,1511028181,100,-2.95,25.95,74.84,0.58
533,sept-iles,75,CA,1511024400,64,50.2,-66.38,35.6,4.7
534,dunkirk,90,US,1511027760,87,42.48,-79.33,46.4,14.99
535,sonoita,0,MX,1511028182,53,31.85,-112.83,71.96,8.19
536,louviers,75,FR,1511026200,87,49.22,1.17,46.4,13.87
537,tonstad,75,NO,1511025600,75,58.66,6.72,44.6,34.45
538,stornoway,56,GB,1511027400,93,58.21,-6.39,41.0,16.11
539,orje,8,NO,1511025600,74,59.48,11.66,37.4,5.82
540,sawtell,75,AU,1511024400,88,-30.38,153.1,62.6,6.93
541,muros,0,ES,1511026200,67,42.78,-9.06,59.0,3.36
542,fairbanks,20,US,1511024280,75,64.84,-147.72,-18.41,3.94
543,andenes,0,NO,1511027400,100,69.31,16.12,32.0,19.46
544,tatvan,12,TR,1511028186,75,38.51,42.28,27.41,1.59
545,lar,0,IN,1511028187,71,26.2,83.97,71.24,8.75
546,yar-sale,88,RU,1511028187,93,66.83,70.83,16.34,9.31
547,ulaangom,0,MN,1511028188,53,49.98,92.07,-14.31,2.37
548,bakhmach,92,UA,1511028188,96,51.18,32.76,34.97,9.42
549,deer lake,90,CA,1511024400,93,49.17,-57.43,37.4,4.7
550,muhos,88,FI,1511027400,92,64.75,26.17,28.4,4.7
551,pacific grove,1,US,1511026500,81,36.62,-121.92,51.8,3.71
552,mahina,75,PF,1511026200,78,-17.51,-149.49,80.6,6.93
553,awbari,12,LY,1511028190,32,26.59,12.78,53.69,5.73
554,soe,88,ID,1511028191,99,-9.86,124.28,71.02,1.92
555,vavuniya,8,LK,1511028191,94,8.75,80.5,73.45,3.27
556,baculin,8,PH,1511028192,98,7.45,126.58,76.42,5.39
557,tuy hoa,92,VN,1511028192,100,13.08,109.3,75.2,10.98
558,ust-nera,56,RU,1511028193,41,64.57,143.2,-28.84,2.15
559,saint-pierre,0,RE,1511026200,83,-21.34,55.48,77.0,4.7
560,diadema,40,BR,1511024400,51,-23.69,-46.62,86.0,12.75
561,port augusta,0,AU,1511024400,93,-32.5,137.77,59.0,4.7
562,tabou,40,CI,1511024400,83,4.42,-7.35,82.4,6.93
563,yenagoa,48,NG,1511028195,73,4.92,6.26,80.42,9.08
564,mackenzie,90,CA,1511025900,100,55.3,-123.17,28.4,9.17
565,abomsa,0,ET,1511028196,61,9.98,39.98,55.31,2.71
566,lubaczow,90,PL,1511026200,93,50.16,23.12,35.6,4.47
567,tabas,0,IR,1511028197,61,33.6,56.92,37.13,3.15
568,mutsu,76,JP,1511028197,100,41.29,141.22,36.41,12.55
569,kutum,0,SD,1511028198,32,14.2,24.67,72.86,7.96
570,opuwo,0,NA,1511028198,31,-18.06,13.84,74.89,3.38
571,le port,75,RE,1511026200,78,-20.94,55.29,77.0,9.17
572,filingue,20,NE,1511028200,56,14.35,3.32,85.1,2.82
573,dobryatino,88,RU,1511028098,94,55.51,41.32,33.08,9.42
574,barcelos,0,PT,1511026200,67,41.54,-8.62,57.2,4.7
575,havelock,20,US,1511027640,56,34.88,-76.9,69.8,11.41
576,la ronge,90,CA,1511024400,77,55.1,-105.28,3.2,12.75
577,comodoro rivadavia,75,AR,1511024400,40,-45.87,-67.5,68.0,18.34
578,waddan,8,LY,1511028202,67,29.16,16.14,48.11,3.15
579,san carlos del zulia,12,VE,1511028203,53,9.0,-71.91,94.42,2.37
